{
  "cities": [
    {
      "name": "Quincy, MA",
      "city": "Quincy",
      "county": "SUFFOLK",
      "state": "Massachusetts",
      "state_code": "MA",
      "score": 8.096101,
      "zip": "02169",
      "geo": "42.32439478409065,-71.08756313798686",
      "lat": "42.32439478409065",
      "lng": "-71.08756313798686",
      "place_id": "599be986622c036369251a34090f9eae"
    },
    {
      "name": "Boston, MA",
      "city": "Boston",
      "county": "SUFFOLK",
      "state": "Massachusetts",
      "state_code": "MA",
      "score": 8.096101,
      "zip": "02108",
      "geo": "42.32439478409065,-71.08756313798686",
      "lat": "42.32439478409065",
      "lng": "-71.08756313798686",
      "place_id": "599be986622c036369251a34090f9eae"
    },
    {
      "name": "Boston, IN",
      "city": "Boston",
      "county": "WAYNE",
      "state": "Indiana",
      "state_code": "IN",
      "score": 7.738479,
      "zip": "47324",
      "geo": "39.7416,-84.8524",
      "lat": "39.7416",
      "lng": "-84.8524",
      "place_id": "0db1eca01f6faa070437beaefb13be55"
    },
    {
      "name": "Boston, GA",
      "city": "Boston",
      "county": "THOMAS",
      "state": "Georgia",
      "state_code": "GA",
      "score": 7.738479,
      "zip": "31626",
      "geo": "30.791556,-83.806838",
      "lat": "30.791556",
      "lng": "-83.806838",
      "place_id": "f7622b55a7f99f20b13637e868063a65"
    },
    {
      "name": "Boston, KY",
      "city": "Boston",
      "county": "NELSON",
      "state": "Kentucky",
      "state_code": "KY",
      "score": 7.738479,
      "zip": "40107",
      "geo": "37.773784,-85.63406200000001",
      "lat": "37.773784",
      "lng": "-85.63406200000001",
      "place_id": "28d53c9473d1d40933cb215c07cd0f9d"
    },
    {
      "name": "Boston, NY",
      "city": "Boston",
      "county": "ERIE",
      "state": "New York",
      "state_code": "NY",
      "score": 7.738479,
      "zip": "14025",
      "geo": "42.620287,-78.721492",
      "lat": "42.620287",
      "lng": "-78.721492",
      "place_id": "621e6d584f8c632f12aee1a3c128f42e"
    },
    {
      "name": "Boston, VA",
      "city": "Boston",
      "county": "CULPEPER",
      "state": "Virginia",
      "state_code": "VA",
      "score": 7.738479,
      "zip": "22713",
      "geo": "38.539248,-78.141492",
      "lat": "38.539248",
      "lng": "-78.141492",
      "place_id": "d45f86ca7aa855fc46dfd21389d577d0"
    },
    {
      "name": "Boston, TX",
      "city": "Boston",
      "county": "BOWIE",
      "state": "Texas",
      "state_code": "TX",
      "score": 7.20945,
      "zip": "75570",
      "geo": "33.454834,-94.449964",
      "lat": "33.454834",
      "lng": "-94.449964",
      "place_id": "0ee556f1d1e8bddb68496e941bb5a6e1"
    },
    {
      "name": "Boston, PA",
      "city": "Boston",
      "county": "ALLEGHENY",
      "state": "Pennsylvania",
      "state_code": "PA",
      "score": 7.2066035,
      "zip": "15135",
      "geo": "40.300176,-79.808453",
      "lat": "40.300176",
      "lng": "-79.808453",
      "place_id": "18093ee15db4362d9127c35cd20a381a"
    },
    {
      "name": "Boston Harbor, WA",
      "city": "Boston Harbor",
      "county": "THURSTON",
      "state": "Washington",
      "state_code": "WA",
      "score": 6.0475206,
      "zip": "98501",
      "geo": "46.97804399999997,-122.87350499999994",
      "lat": "46.97804399999997",
      "lng": "-122.87350499999994",
      "place_id": "28f5fecdcb3587306c426c6c36d80c75"
    },
    {
      "name": "Boston Ravine, CA",
      "city": "Boston Ravine",
      "county": "NEVADA",
      "state": "California",
      "state_code": "CA",
      "score": 6.04137,
      "zip": "95945",
      "geo": "39.220195,-120.90084399999992",
      "lat": "39.220195",
      "lng": "-120.90084399999992",
      "place_id": "8f6aae76ae55a5e00bf084323fa17749"
    },
    {
      "name": "Ashburn, VA",
      "city": "Ashburn",
      "county": "Virginia",
      "state": "Virginia",
      "state_code": "VA",
      "score": 8.096101,
      "zip": "20147",
      "geo": "38.9935424294383,-77.5308894905132",
      "lat": "38.9935424294383",
      "lng": "-77.5308894905132",
      "place_id": "599be986622c036369251a34090f9eae"
    }
  ]
}